{
   "type": "FeatureCollection",
   "features": [
  {
    "type": "Feature",
    "geometry": {
       "type": "Point",
       "coordinates":  [ 117.2264,31.8257 ]
    },
    "properties": {
    "Location":"Anhui",
    "Region":"Mainland China",
    "1":39,
    "2":60,
    "3":70,
    "4":106,
    "5":152,
    "6":200,
    "7":237,
    "8":297,
    "9":340,
    "10":408,
    "11":480,
    "12":530,
    "13":591,
    "14":665
    }
  },
  {
    "type": "Feature",
    "geometry": {
       "type": "Point",
       "coordinates":  [ 116.4142,40.1824 ]
    },
    "properties": {
    "Location":"Beijing",
    "Region":"Mainland China",
    "1":41,
    "2":68,
    "3":80,
    "4":91,
    "5":111,
    "6":114,
    "7":139,
    "8":168,
    "9":191,
    "10":212,
    "11":228,
    "12":253,
    "13":274,
    "14":297
    }
  },
  {
    "type": "Feature",
    "geometry": {
       "type": "Point",
       "coordinates":  [ 107.874,30.0572 ]
    },
    "properties": {
    "Location":"Chongqing",
    "Region":"Mainland China",
    "1":57,
    "2":75,
    "3":110,
    "4":132,
    "5":147,
    "6":182,
    "7":211,
    "8":247,
    "9":300,
    "10":337,
    "11":366,
    "12":389,
    "13":411,
    "14":426
    }
  },
  {
    "type": "Feature",
    "geometry": {
       "type": "Point",
       "coordinates":  [ 117.9874,26.0789 ]
    },
    "properties": {
    "Location":"Fujian",
    "Region":"Mainland China",
    "1":18,
    "2":35,
    "3":59,
    "4":80,
    "5":84,
    "6":101,
    "7":120,
    "8":144,
    "9":159,
    "10":179,
    "11":194,
    "12":205,
    "13":215,
    "14":224
    }
  },
  {
    "type": "Feature",
    "geometry": {
       "type": "Point",
       "coordinates":  [ 113.4244,23.3417 ]
    },
    "properties": {
    "Location":"Guangdong",
    "Region":"Mainland China",
    "1":78,
    "2":111,
    "3":151,
    "4":207,
    "5":277,
    "6":354,
    "7":436,
    "8":535,
    "9":632,
    "10":725,
    "11":813,
    "12":895,
    "13":970,
    "14":1034
    }
  },
  {
    "type": "Feature",
    "geometry": {
       "type": "Point",
       "coordinates":  [ 108.7881,23.8298 ]
    },
    "properties": {
    "Location":"Guangxi",
    "Region":"Mainland China",
    "1":23,
    "2":36,
    "3":46,
    "4":51,
    "5":58,
    "6":78,
    "7":87,
    "8":100,
    "9":111,
    "10":127,
    "11":139,
    "12":150,
    "13":168,
    "14":172
    }
  },
  {
    "type": "Feature",
    "geometry": {
       "type": "Point",
       "coordinates":  [ 109.7453,19.1959 ]
    },
    "properties": {
    "Location":"Hainan",
    "Region":"Mainland China",
    "1":19,
    "2":22,
    "3":33,
    "4":40,
    "5":43,
    "6":46,
    "7":52,
    "8":62,
    "9":64,
    "10":72,
    "11":80,
    "12":99,
    "13":106,
    "14":117
    }
  },
  {
    "type": "Feature",
    "geometry": {
       "type": "Point",
       "coordinates":  [ 113.614,33.88202 ]
    },
    "properties": {
    "Location":"Henan",
    "Region":"Mainland China",
    "1":32,
    "2":83,
    "3":128,
    "4":168,
    "5":206,
    "6":278,
    "7":352,
    "8":422,
    "9":493,
    "10":566,
    "11":675,
    "12":764,
    "13":851,
    "14":914
    }
  },
  {
    "type": "Feature",
    "geometry": {
       "type": "Point",
       "coordinates":  [ 111.7088,27.6104 ]
    },
    "properties": {
    "Location":"Hunan",
    "Region":"Mainland China",
    "1":43,
    "2":69,
    "3":100,
    "4":143,
    "5":221,
    "6":277,
    "7":332,
    "8":389,
    "9":463,
    "10":521,
    "11":593,
    "12":661,
    "13":711,
    "14":772
    }
  },
  {
    "type": "Feature",
    "geometry": {
       "type": "Point",
       "coordinates":  [ 119.455,32.9711 ]
    },
    "properties": {
    "Location":"Jiangsu",
    "Region":"Mainland China",
    "1":18,
    "2":33,
    "3":47,
    "4":70,
    "5":99,
    "6":129,
    "7":168,
    "8":202,
    "9":236,
    "10":271,
    "11":308,
    "12":341,
    "13":373,
    "14":408
    }
  },
  {
    "type": "Feature",
    "geometry": {
       "type": "Point",
       "coordinates":  [ 115.7221,27.614 ]
    },
    "properties": {
    "Location":"Jiangxi",
    "Region":"Mainland China",
    "1":18,
    "2":36,
    "3":72,
    "4":109,
    "5":109,
    "6":162,
    "7":240,
    "8":286,
    "9":333,
    "10":391,
    "11":476,
    "12":548,
    "13":600,
    "14":661
    }
  },
  {
    "type": "Feature",
    "geometry": {
       "type": "Point",
       "coordinates":  [ 122.6085,41.2956 ]
    },
    "properties": {
    "Location":"Liaoning",
    "Region":"Mainland China",
    "1":17,
    "2":21,
    "3":27,
    "4":34,
    "5":39,
    "6":41,
    "7":48,
    "8":64,
    "9":70,
    "10":74,
    "11":81,
    "12":89,
    "13":94,
    "14":99
    }
  },
  {
    "type": "Feature",
    "geometry": {
       "type": "Point",
       "coordinates":  [ 108.8701,35.1917 ]
    },
    "properties": {
    "Location":"Shaanxi",
    "Region":"Mainland China",
    "1":15,
    "2":22,
    "3":35,
    "4":46,
    "5":56,
    "6":63,
    "7":87,
    "8":101,
    "9":116,
    "10":128,
    "11":142,
    "12":165,
    "13":173,
    "14":184
    }
  },
  {
    "type": "Feature",
    "geometry": {
       "type": "Point",
       "coordinates":  [ 118.1498,36.3427 ]
    },
    "properties": {
    "Location":"Shandong",
    "Region":"Mainland China",
    "1":27,
    "2":46,
    "3":75,
    "4":95,
    "5":130,
    "6":158,
    "7":184,
    "8":206,
    "9":230,
    "10":259,
    "11":275,
    "12":307,
    "13":347,
    "14":386
    }
  },
  {
    "type": "Feature",
    "geometry": {
       "type": "Point",
       "coordinates":  [ 121.4491,31.202 ]
    },
    "properties": {
    "Location":"Shanghai",
    "Region":"Mainland China",
    "1":33,
    "2":40,
    "3":53,
    "4":66,
    "5":96,
    "6":112,
    "7":135,
    "8":169,
    "9":182,
    "10":203,
    "11":219,
    "12":243,
    "13":257,
    "14":277
    }
  },
  {
    "type": "Feature",
    "geometry": {
       "type": "Point",
       "coordinates":  [ 102.7103,30.6171 ]
    },
    "properties": {
    "Location":"Sichuan",
    "Region":"Mainland China",
    "1":28,
    "2":44,
    "3":69,
    "4":90,
    "5":108,
    "6":142,
    "7":177,
    "8":207,
    "9":231,
    "10":254,
    "11":282,
    "12":301,
    "13":321,
    "14":344
    }
  },
  {
    "type": "Feature",
    "geometry": {
       "type": "Point",
       "coordinates":  [ 101.487,24.974 ]
    },
    "properties": {
    "Location":"Yunnan",
    "Region":"Mainland China",
    "1":11,
    "2":16,
    "3":26,
    "4":44,
    "5":55,
    "6":70,
    "7":83,
    "8":93,
    "9":105,
    "10":117,
    "11":122,
    "12":128,
    "13":133,
    "14":138
    }
  },
  {
    "type": "Feature",
    "geometry": {
       "type": "Point",
       "coordinates":  [ 120.0934,29.1832 ]
    },
    "properties": {
    "Location":"Zhejiang",
    "Region":"Mainland China",
    "1":62,
    "2":104,
    "3":128,
    "4":173,
    "5":296,
    "6":428,
    "7":538,
    "8":599,
    "9":661,
    "10":724,
    "11":829,
    "12":895,
    "13":954,
    "14":1006
    }
  }
  ]
}
